City,Latitude,Longitude,Max Temp,Humidity,Cloudiness,Wind Speed,Country,Date
Kapaa,22.08,-159.32,81.0,83,40,9.17,US,1604608907
Alyangula,-13.85,136.42,80.6,88,19,5.82,AU,1604609368
Nikolskoye,59.7,30.79,46.4,75,20,17.9,RU,1604609084
Romny,50.75,33.47,40.08,94,0,7.7,UA,1604609371
Hong Kong,22.29,114.16,72.0,81,0,1.01,HK,1604609372
Hadejia,12.45,10.04,82.62,23,95,12.59,NG,1604609373
Punta Arenas,-53.15,-70.92,55.4,30,75,20.8,CL,1604608777
Ponta do Sol,32.67,-17.1,59.0,72,40,5.82,PT,1604608904
Rikitea,-23.12,-134.97,74.35,68,39,12.08,PF,1604608892
Bereket,39.24,55.52,53.1,36,2,8.7,TM,1604609378
Saldanha,-33.01,17.94,62.6,88,100,4.7,ZA,1604609149
Srednekolymsk,67.45,153.68,20.08,97,100,21.05,RU,1604608969
Yar-Sale,66.83,70.83,11.32,96,100,12.3,RU,1604609381
Ushuaia,-54.8,-68.3,48.2,49,75,24.16,AR,1604608862
Evensk,61.95,159.23,2.66,85,96,10.25,RU,1604609096
Vestmannaeyjar,63.44,-20.27,44.47,71,100,37.11,IS,1604609359
Hobart,-42.88,147.33,54.0,58,40,11.41,AU,1604609042
Voh,-20.97,164.7,81.18,67,1,0.38,NC,1604609388
Barrow,71.29,-156.79,21.2,92,90,23.04,US,1604609053
Abalak,58.13,68.59,30.72,99,98,6.46,RU,1604609390
Yellowknife,62.46,-114.35,12.99,72,90,14.99,CA,1604608930
Atuona,-9.8,-139.03,79.05,74,8,21.56,PF,1604609037
Billings Metropolitan Area,45.78,-108.5,71.6,17,75,12.75,US,1604609393
Mossamedes,-15.2,12.15,70.83,62,0,5.28,AO,1604609099
Alice Springs,-23.7,133.88,60.8,25,10,6.93,AU,1604609396
Carnarvon,-24.87,113.63,69.8,100,90,16.11,AU,1604609030
Port Keats,-14.25,129.55,82.4,76,0,6.29,AU,1604609398
Nanortalik,60.14,-45.24,29.3,85,85,38.1,GL,1604608923
Avarua,-21.21,-159.78,75.2,78,81,18.86,CK,1604609054
Busselton,-33.65,115.33,55.0,80,0,3.0,AU,1604608925
Port Hardy,50.7,-127.42,50.0,81,40,5.82,CA,1604608986
Mana,5.66,-53.78,79.12,84,88,7.36,GF,1604609405
Torbay,47.67,-52.73,34.0,83,20,6.93,CA,1604609201
Verkhoyansk,67.54,133.38,-24.75,84,88,0.85,RU,1604608988
Thunder Bay,48.4,-89.32,60.8,44,75,2.44,CA,1604609377
Albany,42.6,-73.97,66.0,45,75,11.41,US,1604608798
Hermanus,-34.42,19.23,62.01,89,100,4.0,ZA,1604609002
Port Alfred,-33.59,26.89,67.01,86,17,12.17,ZA,1604609294
Mar del Plata,-38.0,-57.56,71.01,49,75,11.41,AR,1604608987
Khatanga,71.97,102.5,-4.61,90,100,1.79,RU,1604609414
Puerto Colombia,10.99,-74.95,82.4,83,75,6.93,CO,1604609205
Karligan,14.97,122.05,78.64,81,89,1.41,PH,1604609416
Bayir,37.27,28.22,68.0,42,0,12.75,TR,1604609417
Kabare,-2.47,28.82,64.22,83,100,1.57,CD,1604609418
Barentu,15.11,37.59,71.89,63,1,5.75,ER,1604609419
Fairbanks,64.84,-147.72,1.99,76,75,1.12,US,1604609014
Bandarbeyla,9.49,50.81,74.23,71,33,8.03,SO,1604609422
Kaitong,44.81,123.15,44.71,53,100,10.96,CN,1604609423
Mataura,-46.19,168.86,53.01,85,63,5.01,NZ,1604608927
Omsukchan,62.53,155.8,-14.4,83,100,5.08,RU,1604609426
El Ejido,36.78,-2.81,72.0,60,0,11.41,ES,1604609428
Port-Cartier,50.03,-66.87,36.0,95,99,3.36,CA,1604609287
Våler,60.68,11.83,50.0,90,50,3.53,NO,1604609431
Los Llanos de Aridane,28.66,-17.92,69.8,52,40,5.82,ES,1604609400
Pevek,69.7,170.31,28.87,96,100,25.05,RU,1604609040
Faanui,-16.48,-151.75,79.14,81,0,17.02,PF,1604608929
Makkah al Mukarramah,21.43,39.83,75.81,59,0,3.87,SA,1604609435
Hualmay,-11.1,-77.61,67.14,68,15,9.75,PE,1604609353
Puerto Ayora,-0.74,-90.35,77.0,69,20,20.8,EC,1604608894
Cabo San Lucas,22.89,-109.91,87.01,58,5,10.04,MX,1604608766
Lakes Entrance,-37.88,147.98,53.01,78,29,9.55,AU,1604609440
Naze,28.37,129.48,77.0,73,90,12.75,JP,1604609441
Vaini,-21.2,-175.2,75.2,83,75,8.05,TO,1604608966
Lüderitz,-26.65,15.16,60.35,87,71,8.03,NA,1604609086
Kaeo,-35.1,173.78,72.0,78,67,5.99,NZ,1604609322
Pedasí,7.53,-80.03,78.94,77,7,20.36,PA,1604609446
Broken Hill,-31.95,141.43,48.2,66,100,9.17,AU,1604609282
Bethel,41.37,-73.41,66.2,39,1,10.29,US,1604609101
Shudayag,63.53,53.61,36.59,88,74,8.5,RU,1604609450
Santa María Rayón,19.14,-99.58,75.2,15,5,4.7,MX,1604609451
Santa Vitória do Palmar,-33.52,-53.37,63.39,72,2,10.4,BR,1604609452
San Cristobal,7.77,-72.22,87.8,58,40,12.75,VE,1604609207
Jamestown,42.1,-79.24,66.2,37,1,13.87,US,1604608755
Haines Junction,60.75,-137.51,8.6,55,0,3.36,CA,1604608998
Nanning,22.82,108.32,64.4,93,85,4.47,CN,1604609457
Sakakah,29.97,40.21,66.2,48,11,11.41,SA,1604609287
Santa Marinella,42.03,11.85,62.01,78,18,6.2,IT,1604609460
Sheregesh,52.92,87.99,28.98,98,100,8.01,RU,1604609461
Bluff,-46.6,168.33,53.01,85,3,5.01,NZ,1604608924
Emerald,-23.53,148.17,71.6,26,0,19.46,AU,1604609463
Lompoc,34.64,-120.46,86.0,20,1,3.36,US,1604609318
Kaseda-shirakame,31.42,130.32,62.64,77,23,9.04,JP,1604609465
Arraial do Cabo,-22.97,-42.03,69.8,88,75,18.34,BR,1604609050
Bredasdorp,-34.53,20.04,66.2,82,100,12.75,ZA,1604608996
São Filipe,14.9,-24.5,77.16,76,12,4.05,CV,1604609171
Banda Aceh,5.56,95.32,78.78,80,55,4.81,ID,1604609408
Pisco,-13.7,-76.22,68.0,72,20,10.29,PE,1604609147
Hilo,19.73,-155.09,84.2,62,40,8.05,US,1604608928
Tiksi,71.69,128.87,8.91,96,100,7.25,RU,1604609264
Mahébourg,-20.41,57.7,73.4,73,75,6.93,MU,1604609101
Kotel'nich,58.31,48.35,41.09,83,100,10.29,RU,1604609477
Hingoli,19.72,77.15,65.41,54,0,2.73,IN,1604609479
Esperance,-33.87,121.9,50.0,93,97,8.05,AU,1604608969
Visnes,59.36,5.22,52.0,100,75,13.87,NO,1604609481
Berlare,51.04,3.98,46.0,89,0,4.94,BE,1604609482
Castro,-24.79,-50.01,64.62,57,0,2.01,BR,1604608995
Saint Paul Harbor,57.79,-152.41,33.8,47,75,1.95,US,1604609033
Tuktoyaktuk,69.45,-133.04,5.0,77,75,9.17,CA,1604608961
Cherskiy,68.75,161.3,24.4,93,100,19.3,RU,1604609104
Lebu,-37.62,-73.65,54.75,71,0,20.8,CL,1604608931
Tahoua,14.89,5.27,86.0,20,0,6.93,NE,1604609490
Maracaçumé,-2.04,-45.96,78.71,86,100,3.44,BR,1604609491
Olbia,40.92,9.49,51.8,93,0,1.12,IT,1604609492
Shimoda,34.67,138.95,48.0,87,32,6.35,JP,1604609493
Kota Belud,6.35,116.43,73.4,94,20,5.82,MY,1604609494
Fortuna,40.6,-124.16,70.0,68,1,5.82,US,1604608983
Butaritari,3.07,172.79,81.79,78,32,8.9,KI,1604609091
Saint-Louis,16.33,-15.0,93.34,22,70,12.1,SN,1604609498
Ağdam,39.99,46.93,60.1,75,100,2.44,AZ,1604609500
Narsaq,60.92,-46.05,19.4,41,20,2.24,GL,1604609166
Port Elizabeth,-33.92,25.57,66.2,88,0,5.82,ZA,1604609133
Bonito,-21.12,-56.48,84.85,40,0,3.22,BR,1604609384
Sitka,57.05,-135.33,35.6,59,20,16.11,US,1604609225
Traverse City,44.76,-85.62,66.2,45,20,5.82,US,1604609505
Saskylakh,71.92,114.08,7.02,94,100,8.23,RU,1604609277
Kahului,20.89,-156.47,87.8,52,20,10.29,US,1604609296
Coyhaique,-45.58,-72.07,55.4,50,75,8.05,CL,1604609509
Ribeira Grande,38.52,-28.7,59.0,77,40,8.05,PT,1604608963
Nushki,29.55,66.02,50.07,49,0,1.74,PK,1604609511
Muros,42.78,-9.06,61.0,62,0,9.17,ES,1604609512
Saint-Philippe,-21.36,55.77,73.4,72,40,5.82,RE,1604609004
Cape Town,-33.93,18.42,66.99,88,75,9.17,ZA,1604609083
Meulaboh,4.14,96.13,76.96,88,82,4.12,ID,1604609518
Lamu,-2.27,40.9,80.6,78,1,9.17,KE,1604609311
Longyearbyen,78.22,15.64,37.4,74,40,18.34,SJ,1604609520
Pochutla,15.74,-96.47,87.8,58,90,11.41,MX,1604609431
Tiznit Province,29.58,-9.5,67.24,42,100,5.82,MA,1604609344
Port-Gentil,-0.72,8.78,80.6,88,40,11.41,GA,1604609125
Te Anau,-45.42,167.72,48.63,79,98,1.86,NZ,1604609296
Geraldton,-28.77,114.6,69.8,64,7,11.41,AU,1604609085
Port Moresby,-9.44,147.18,77.0,94,75,3.36,PG,1604609097
Brigham City,41.51,-112.02,68.0,17,1,7.0,US,1604609449
Atar,20.52,-13.05,87.35,17,100,2.86,MR,1604609361
Sept-Îles,50.2,-66.38,36.0,91,100,3.36,CA,1604609339
Bella Vista,36.43,-94.23,73.4,49,1,10.29,US,1604609535
Ancud,-41.87,-73.82,59.0,58,75,10.29,CL,1604609200
Airai,-8.93,125.41,61.48,73,10,1.54,TL,1604608936
Constitución,-35.33,-72.42,61.56,55,0,18.19,CL,1604609538
East London,-33.02,27.91,71.02,76,61,8.12,ZA,1604609028
New Norfolk,-42.78,147.06,54.0,61,99,5.99,AU,1604608920
Thompson,55.74,-97.86,8.6,78,90,6.93,CA,1604608907
Beira,-19.84,34.84,80.6,78,20,11.41,MZ,1604609320
Mujiayingzi,42.12,118.78,42.04,57,30,11.72,CN,1604609544
Moose Factory,51.26,-80.61,37.4,74,90,8.05,CA,1604609545
Shubarshi,48.59,57.19,47.01,43,100,8.16,KZ,1604609545
Novogurovskiy,54.47,37.34,42.8,81,93,8.95,RU,1604609547
Tasiilaq,65.61,-37.64,28.4,74,75,1.12,GL,1604609096
Alakurtti,66.97,30.35,33.01,95,97,3.0,RU,1604609549
Saint George,37.1,-113.58,82.99,21,1,9.95,US,1604609000
Atasū,48.68,71.64,29.23,74,0,0.85,KZ,1604609286
Kruisfontein,-34.0,24.73,64.0,91,50,1.01,ZA,1604609385
Rio Branco do Sul,-25.19,-49.31,71.6,28,40,9.17,BR,1604609554
Lima,-12.04,-77.03,69.8,64,75,10.29,PE,1604609400
Katherine,-14.47,132.27,84.2,66,18,4.7,AU,1604609557
Ibrā’,22.69,58.53,60.44,67,0,1.9,OM,1604609558
Chui,-33.7,-53.46,63.16,73,5,10.98,UY,1604609049
Kaitangata,-46.28,169.85,49.62,75,91,2.68,NZ,1604609085
Beşikdüzü,41.05,39.23,64.4,77,75,1.12,TR,1604609349
Adrar,20.5,-10.07,86.61,15,40,9.51,MR,1604609564
Tagusao,9.19,117.81,78.49,73,98,2.08,PH,1604609565
Port Lincoln,-34.73,135.87,53.91,63,100,7.99,AU,1604609084
Aksu,41.12,80.26,38.32,62,0,4.85,CN,1604609333
Guerrero Negro,27.98,-114.06,90.7,17,64,12.03,MX,1604609167
Dikson,73.51,80.55,-0.47,91,0,3.78,RU,1604608923
Lubāna,56.9,26.72,47.5,85,88,10.22,LV,1604609571
Arrondissement de Mende,44.67,3.5,40.48,96,19,4.21,FR,1604609573
Almaznyy,48.04,40.05,44.6,93,40,4.47,RU,1604609330
Indianola,41.36,-93.56,73.0,43,1,3.58,US,1604609576
Nicoya,10.15,-85.45,78.8,88,75,8.05,CR,1604609577
Rancho Palos Verdes,33.74,-118.39,87.8,15,75,4.7,US,1604609578
Shakawe,-18.37,21.85,77.13,51,14,6.85,BW,1604609302
Inongo,-1.95,18.27,72.55,94,100,7.52,CD,1604609580
Palanga,55.92,21.07,51.8,93,75,9.17,LT,1604609581
Norman Wells,65.28,-126.83,-2.2,84,40,0.54,CA,1604609582
Sulangan,11.14,123.72,81.68,80,83,12.06,PH,1604609584
Iquitos,-3.75,-73.25,84.2,74,75,5.82,PE,1604609585
Angoche,-16.23,39.91,78.39,76,0,12.84,MZ,1604609516
Itarema,-2.92,-39.92,80.28,75,0,15.01,BR,1604609587
Barão de Melgaço,-16.19,-55.97,100.4,17,0,3.36,BR,1604609588
Asău,46.43,26.4,46.0,85,83,2.33,RO,1604609589
Iqaluit,63.75,-68.51,15.8,66,90,18.34,CA,1604609312
Guiuan,11.03,125.72,82.06,78,81,10.11,PH,1604609591
Bāndarban,22.2,92.23,65.82,89,0,1.66,BD,1604609593
Emba,48.83,58.14,47.1,45,100,6.71,KZ,1604609285
Upernavik,72.79,-56.15,6.66,90,63,5.28,GL,1604609062
Valparaíso,-33.04,-71.63,71.6,40,0,18.34,CL,1604608914
Ahipara,-35.17,173.17,66.38,86,46,5.77,NZ,1604608892
Majene,-3.54,118.97,78.58,85,100,9.04,ID,1604609598
Astrea,9.5,-73.98,82.6,83,65,3.13,CO,1604609600
Alta Floresta,-9.88,-56.09,87.8,46,65,3.78,BR,1604609602
Olafsvik,64.89,-23.71,39.88,73,100,51.27,IS,1604609441
Santa Lucía,27.91,-15.54,68.0,72,20,5.82,ES,1604609604
Belmonte,-15.86,-38.88,71.6,83,90,2.24,BR,1604609239
Katsuura,35.13,140.3,55.4,66,75,8.05,JP,1604608922
Samarai,-10.62,150.67,80.01,85,26,7.74,PG,1604609308
Souillac,-20.52,57.52,73.4,73,75,6.93,MU,1604609086
Kindu,-2.95,25.95,71.42,96,100,1.9,CD,1604609609
El Salvador,13.83,-88.92,78.8,100,90,2.24,SV,1604609611
Ilulissat,69.22,-51.1,17.6,67,75,14.99,GL,1604609017
Ossora,59.24,163.07,30.42,89,99,8.03,RU,1604609614
Amapá,1.0,-52.0,77.58,86,53,6.69,BR,1604609615
Yantal',56.85,105.25,26.76,96,100,6.73,RU,1604609616
Ngunguru,-35.62,174.5,72.0,78,18,5.99,NZ,1604609617
Shangzhi,45.22,127.97,39.94,87,100,9.64,CN,1604609618
Phan Thiet,10.93,108.1,76.17,89,81,6.82,VN,1604609588
Provideniya,64.38,-173.3,41.0,86,90,31.32,RU,1604609621
Adiaké,5.29,-3.3,78.8,100,20,2.24,CI,1604609622
Kumluca,36.37,30.29,67.89,44,61,8.08,TR,1604609598
Peniche,39.36,-9.38,57.99,84,100,8.01,PT,1604609566
Baykit,61.67,96.37,-2.88,86,18,4.9,RU,1604609625
Homer,59.64,-151.55,26.01,45,1,3.36,US,1604609626
Bambous Virieux,-20.34,57.76,73.4,73,75,6.93,MU,1604609261
Hasaki,35.73,140.83,50.0,87,75,2.24,JP,1604609628
Danielskuil,-28.19,23.54,63.97,45,37,9.82,ZA,1604609629
Clarence Town,-32.58,151.78,62.01,87,75,12.75,AU,1604609631
Tigil',57.8,158.67,29.08,97,84,10.2,RU,1604609632
Camocim,-2.9,-40.84,82.27,67,20,17.96,BR,1604609525
Mount Isa,-20.73,139.5,71.6,18,0,12.75,AU,1604608973
La Ronge,55.1,-105.28,19.4,85,100,13.87,CA,1604609635
Faya,18.39,42.45,62.6,82,1,1.28,SA,1604609636
Tiarei,-17.53,-149.33,77.0,78,75,12.75,PF,1604609637
Grand Gaube,-20.01,57.66,71.01,79,0,1.99,MU,1604609274
Havre-St-Pierre,50.23,-63.6,37.4,100,90,8.05,CA,1604609640
Dawei,14.08,98.2,73.06,83,1,4.12,MM,1604609641
Grindavik,63.84,-22.43,41.0,75,75,40.26,IS,1604609642
Capaci,38.17,13.24,64.99,82,0,5.82,IT,1604609643
Brisbane,-27.47,153.03,70.0,40,20,10.29,AU,1604609644
Leningradskiy,69.38,178.42,31.93,98,100,20.94,RU,1604609200
Xapuri,-10.65,-68.5,96.57,29,100,2.8,BR,1604609586
Taoudenni,22.68,-3.98,81.7,16,19,5.91,ML,1604609647
Namuac,18.61,121.17,78.15,84,100,7.27,PH,1604609649
Kysyl-Syr,63.9,122.76,1.04,92,100,3.96,RU,1604609122
Yagoua,10.34,15.23,80.94,27,99,9.01,CM,1604609651
Alofi,-19.06,-169.92,75.2,78,75,18.34,NU,1604609273
Perumpāvūr,10.13,76.48,75.2,94,75,1.48,IN,1604609653
Nizhnedevitsk,51.54,38.37,44.6,87,90,8.95,RU,1604609654
Riviere-au-Renard,49.0,-64.4,44.6,81,75,12.75,CA,1604609655
Sonegaon,20.65,78.68,60.8,72,0,4.5,IN,1604609656
‘Āhuimanu,21.44,-157.84,84.2,74,20,6.93,US,1604609353
Bam,29.11,58.36,54.64,39,0,2.28,IR,1604609237
Tura,25.52,90.22,59.61,57,0,3.15,IN,1604609236
Cidreira,-30.18,-50.21,67.17,66,0,7.11,BR,1604609661
Barra,-11.09,-43.14,79.54,65,59,3.27,BR,1604609662
Kamenskiy,50.89,45.49,39.74,91,6,7.16,RU,1604609663
Sondrio,46.17,9.87,55.0,79,29,1.39,IT,1604609664
Fuyu,45.18,124.82,46.09,57,100,16.75,CN,1604609665
Vila Franca do Campo,37.72,-25.43,61.0,63,40,11.41,PT,1604609266
Aklavik,68.22,-135.01,-5.8,76,20,6.93,CA,1604608929
Kenai,60.55,-151.26,19.99,66,1,8.03,US,1604609669
Avera,33.19,-82.53,77.0,44,40,6.93,US,1604609314
George Town,5.41,100.34,80.6,83,40,4.7,MY,1604609208
Bengkulu,-3.8,102.27,76.01,87,97,4.21,ID,1604609672
Ust'-Omchug,61.15,149.63,-13.34,85,74,7.16,RU,1604609247
Lavrentiya,65.58,-171.0,36.52,86,85,17.94,RU,1604609186
Todos Santos,23.45,-110.22,84.0,72,100,5.01,MX,1604609676
Mitú,1.2,-70.17,84.16,77,71,1.72,CO,1604609572
Tual,-5.67,132.75,82.24,79,48,11.43,ID,1604609678
Gobabis,-22.45,18.97,74.68,18,2,14.5,NA,1604609679
Trairi,-3.28,-39.27,80.4,75,51,11.88,BR,1604609169
São Sepé,-30.16,-53.57,69.71,65,60,7.43,BR,1604609681
Tucupita,9.06,-62.05,78.46,94,73,4.61,VE,1604609683
Kelvington,52.17,-103.53,64.4,36,66,13.87,CA,1604609587
Eidfjord,60.47,7.07,45.0,79,100,3.0,NO,1604609687
Arlit,18.74,7.39,79.57,17,0,10.69,NE,1604609688
Naushki,50.38,106.11,25.09,84,94,2.33,RU,1604609689
Hīt,33.64,42.83,66.69,60,15,3.58,IQ,1604609690
Hamilton,39.18,-84.53,66.2,45,1,8.05,US,1604609440
Bolgar,54.95,49.07,39.2,100,90,6.71,RU,1604609692
Margate,51.38,1.39,51.01,66,13,5.53,GB,1604609305
Kidal,18.44,1.41,80.65,20,0,7.54,ML,1604609695
Thinadhoo,0.53,72.93,83.37,68,22,4.41,MV,1604609696
Mnogovershinnyy,53.94,139.92,20.17,92,97,18.66,RU,1604609697
Warmbad,-28.45,18.73,60.57,65,13,11.1,NA,1604609698
Galle,6.04,80.22,78.58,84,96,4.65,LK,1604609699
Yulara,-25.24,130.99,69.8,19,65,8.05,AU,1604609700
Synya,65.37,58.04,36.52,94,100,10.18,RU,1604609701
San Isidro,-12.12,-77.05,69.8,64,75,10.29,PE,1604609703
Benjamin Constant,-4.38,-70.03,95.0,59,40,3.36,BR,1604609521
Porto de Moz,-1.75,-52.24,84.85,63,100,0.96,BR,1604609705
Isangel,-19.55,169.27,81.5,70,0,4.76,VU,1604609250
Vila Velha,-20.33,-40.29,80.01,78,75,8.05,BR,1604609707
Puerto Lempira,15.27,-83.77,81.34,80,100,9.8,HN,1604609708
Baza,37.49,-2.77,54.0,81,100,5.93,ES,1604609709
Sahuaripa,29.05,-109.23,100.2,9,70,10.13,MX,1604609710
Hithadhoo,-0.6,73.08,83.01,72,100,2.44,MV,1604609712
Téra,14.01,0.75,86.04,20,14,5.68,NE,1604609713
Mayumba,-3.43,10.66,77.9,85,100,0.47,GA,1604609386
Novoagansk,61.94,76.66,29.1,99,100,5.01,RU,1604609715
Nago,26.59,127.98,77.0,94,90,12.75,JP,1604609366
Pandan,14.05,124.17,78.08,80,16,4.61,PH,1604609718
Vao,-22.67,167.48,74.62,83,0,9.4,NC,1604609581
Novyy Urgal,51.07,132.56,15.06,94,0,2.62,RU,1604609721
Jijiga,9.35,42.8,60.98,54,9,1.45,ET,1604609722
Novikovo,51.15,37.89,45.73,78,84,11.27,RU,1604609723
Sibolga,1.74,98.78,76.98,74,98,3.51,ID,1604609334
Ponta Delgada,37.73,-25.67,61.0,63,40,11.41,PT,1604609726
Ostrovnoy,68.05,39.51,36.64,93,100,11.95,RU,1604609175
Brownsville,25.9,-97.5,86.0,42,75,10.29,US,1604609728
Dorobanţu,44.22,26.95,48.0,70,100,3.0,RO,1604609730
Kadiri,14.12,78.17,70.65,91,3,2.46,IN,1604609731
Murdochville,48.96,-65.5,44.6,70,98,5.82,CA,1604609732
Dingle,11.0,122.67,74.28,89,34,3.8,PH,1604609123
Argentan,48.75,-0.02,44.6,70,0,9.17,FR,1604609734
Port Pirie,-33.18,138.02,51.8,76,13,6.93,AU,1604609637
Panzhihua,26.59,101.71,60.24,79,3,0.51,CN,1604609736
Yongchang,30.04,119.73,59.0,91,0,2.19,CN,1604609737
Balabac,7.99,117.06,78.42,75,93,1.23,PH,1604609619
Oytal,42.91,73.27,45.14,47,0,3.0,KZ,1604609740
Chumikan,54.72,135.31,15.89,94,19,20.71,RU,1604609293
Auki,-8.77,160.7,83.25,74,100,0.78,SB,1604609742
Ulverstone,-41.15,146.17,57.0,64,42,1.01,AU,1604609743
Chokurdakh,70.63,147.92,3.51,95,98,10.31,RU,1604609744
Chute-aux-Outardes,49.12,-68.4,37.4,86,1,6.93,CA,1604609745
Lorengau,-2.02,147.27,79.77,77,100,5.88,PG,1604609653
Bosaso,11.28,49.18,74.26,50,16,4.05,SO,1604609748
Nakkila,61.37,22.0,50.0,61,0,16.11,FI,1604609749
Anadyr,64.75,177.48,37.4,93,90,17.9,RU,1604609750
Muyezerskiy,63.93,31.65,39.54,73,96,15.68,RU,1604609751
Sur,22.57,59.53,74.23,57,0,8.37,OM,1604609452
Richards Bay,-28.78,32.04,72.45,83,100,11.32,ZA,1604609519
San Patricio,28.02,-97.52,84.0,51,20,10.29,US,1604609754
Jieshi,22.81,115.83,71.01,78,0,7.38,CN,1604609756
Apac,1.98,32.54,68.0,91,100,1.23,UG,1604609757
North Bend,43.41,-124.22,61.0,100,90,11.41,US,1604609758
Jumla,29.27,82.18,38.71,62,0,4.21,NP,1604609254
Kalangala,-0.31,32.23,73.4,88,20,3.36,UG,1604609761
Lodja,-3.48,23.43,70.47,95,94,1.92,CD,1604609763
Tilichiki,60.47,166.1,24.93,95,100,14.5,RU,1604609592
Katobu,-4.94,122.53,75.18,92,2,1.99,ID,1604609766
Muhos,64.81,25.99,42.8,70,0,18.34,FI,1604609767
Payson,40.04,-111.73,73.99,38,1,5.82,US,1604609710
Trenggalek,-8.05,111.72,76.48,88,100,3.31,ID,1604609769
Westport,41.14,-73.36,64.0,72,1,8.05,US,1604609707
Lago da Pedra,-4.33,-45.17,82.29,73,100,5.53,BR,1604609529
Berea,41.37,-81.85,69.8,39,75,10.29,US,1604609610
Caravelas,-17.71,-39.25,72.72,94,95,5.39,BR,1604609363
Rognan,67.1,15.39,44.01,89,100,10.0,NO,1604609774
Freeport,40.66,-73.58,64.99,77,1,10.29,US,1604609313
Batemans Bay,-35.72,150.18,55.99,87,13,5.59,AU,1604609777
Ipixuna,-1.76,-48.8,77.0,94,75,2.24,BR,1604609778
Praia da Vitória,38.73,-27.07,60.8,63,20,18.9,PT,1604609779
Bauchi,10.5,10.0,77.92,32,100,5.5,NG,1604609780
Manono,-7.3,27.42,73.72,85,100,2.75,CD,1604609781
Farmington,36.73,-108.22,73.0,21,1,5.82,US,1604609646
Flin Flon,54.77,-101.86,14.0,85,90,10.29,CA,1604609593
Tuatapere,-46.13,167.68,53.01,85,2,5.01,NZ,1604609329
Manaul,12.45,121.41,78.26,82,72,8.03,PH,1604609786
Hirara,24.8,125.28,79.38,89,98,17.34,JP,1604609787
Miles City,46.41,-105.84,69.8,26,1,10.29,US,1604609788
College,64.86,-147.8,0.0,69,75,3.56,US,1604609789
Chu,43.6,73.76,38.82,68,0,3.62,KZ,1604609793
Samfya,-11.36,29.56,75.38,32,20,5.97,ZM,1604609794
Pacifica,37.61,-122.49,75.99,82,20,3.36,US,1604609795
Āstāneh-ye Ashrafīyeh,37.26,49.94,61.3,85,94,1.41,IR,1604609796
Sohag,26.56,31.69,64.78,56,0,7.4,EG,1604609798
Changtu,42.78,124.1,50.29,70,100,20.85,CN,1604609799
Araguaçu,-12.93,-49.83,85.41,54,99,2.98,BR,1604609800
Puerto Carreño,6.19,-67.49,86.45,68,60,2.95,CO,1604609801
Umm Hājar,13.3,19.7,80.04,17,8,13.4,TD,1604609802
Cairns,-16.92,145.77,73.4,78,56,6.93,AU,1604609578
Xixiang,35.16,112.86,60.01,99,1,7.49,CN,1604609804
Sitrah,26.15,50.62,80.6,54,0,10.29,BH,1604609806
Qaanaaq,77.48,-69.36,-7.1,82,82,5.99,GL,1604609807
Letpadan,17.78,95.75,74.5,86,0,3.67,MM,1604609808
Aripuanã,-9.17,-60.63,90.45,42,100,2.75,BR,1604609809
Korla,41.76,86.15,36.18,71,0,3.27,CN,1604609810
Marathon,44.9,-89.77,69.8,30,1,8.05,US,1604609811
Quatre Cocos,-20.21,57.76,73.4,73,75,6.93,MU,1604609097
Luau,-10.71,22.22,69.58,84,90,2.57,AO,1604609815
Padang,-0.95,100.35,77.85,77,100,3.83,ID,1604609412
Iskateley,67.68,53.15,34.84,98,100,6.13,RU,1604609817
Tadine,-21.55,167.88,78.26,80,1,6.38,NC,1604609818
Safi,32.3,-9.24,64.85,82,100,8.75,MA,1604609611
Władysławowo,54.79,18.4,48.99,93,90,19.46,PL,1604609820
Hokitika,-42.72,170.97,57.02,93,100,3.22,NZ,1604609821
Shubarkuduk,49.14,56.49,48.7,44,100,8.75,KZ,1604609549
Portland,45.52,-122.68,54.0,93,90,5.82,US,1604609470
Kiama,-34.68,150.87,57.99,76,74,16.87,AU,1604609825
Okahandja,-21.98,16.92,68.0,33,0,3.36,NA,1604609826
Marsh Harbour,26.54,-77.06,78.35,77,21,25.57,BS,1604609827
Divinópolis,-20.14,-44.88,73.87,58,40,3.27,BR,1604609828
Oktyabr'skiy,54.48,53.47,39.33,91,97,6.29,RU,1604609829
Fitii,-16.73,-151.03,79.29,81,1,16.71,PF,1604609830
Muravlenko,63.79,74.52,26.17,99,100,10.09,RU,1604609831
Chambersburg,39.94,-77.66,68.0,34,1,4.7,US,1604609798
Toppenish,46.38,-120.31,64.4,45,90,6.93,US,1604609834
Nabire,-3.37,135.48,75.15,86,94,4.07,ID,1604609835
Machida,35.54,139.45,54.0,76,75,6.06,JP,1604609836
Salalah,17.02,54.09,73.4,53,0,3.36,OM,1604609837
Paragominas,-2.97,-47.48,82.85,69,79,6.46,BR,1604609838
Gouyave,12.16,-61.73,86.0,70,20,13.87,GD,1604609839
Tulskiy,44.51,40.18,48.25,69,0,2.37,RU,1604609842
Kabanjahe,3.1,98.49,63.27,95,92,1.68,ID,1604609843
Kalmunai,7.42,81.82,79.72,76,23,2.33,LK,1604609844
Pangkalanbuun,-2.68,111.62,74.73,96,100,0.72,ID,1604609845
Plátanos,37.67,21.62,64.4,68,40,9.17,GR,1604609846
Morant Bay,17.88,-76.41,80.6,69,90,13.87,JM,1604609847
Omboué,-1.57,9.26,76.5,89,100,5.48,GA,1604609848
Kununurra,-15.77,128.73,77.0,88,2,3.36,AU,1604609771
Minas,-34.38,-55.24,71.6,60,40,17.22,UY,1604609851
Yangi Marg`ilon,40.43,71.72,44.6,39,0,6.93,UZ,1604609852
Sakaraha,-22.9,44.53,72.52,60,81,0.96,MG,1604609853
Erenhot,43.65,111.98,35.08,65,0,19.17,CN,1604609110
Lázaro Cárdenas,17.96,-102.2,84.81,61,24,6.69,MX,1604609855
Mildura,-34.2,142.15,48.0,70,83,5.82,AU,1604609401
Codrington,-38.27,141.97,51.4,81,100,8.14,AU,1604609857
Batticaloa,7.71,81.69,80.33,76,63,4.88,LK,1604609858
Bac Lieu,9.29,105.72,77.56,88,100,5.68,VN,1604609860
Vágur,61.47,-6.81,49.28,88,100,35.97,FO,1604609861
Mykhaylivka,47.27,35.22,44.6,100,100,4.47,UA,1604609862
Talnakh,69.49,88.4,-2.2,84,0,6.71,RU,1604609487
Barstow,34.9,-117.02,82.4,13,1,10.58,US,1604609865
Ankang,32.68,109.02,55.31,75,79,0.6,CN,1604609866
Marawi,8.0,124.29,73.99,95,89,5.99,PH,1604609867
Sisimiut,66.94,-53.67,19.51,91,100,6.98,GL,1604609821
Olavarría,-36.89,-60.32,69.8,56,90,4.7,AR,1604609870
Progreso,21.28,-89.67,82.4,78,90,10.29,MX,1604609871
Noumea,-22.28,166.46,78.01,78,0,1.12,NC,1604609872
Srīvardhan,18.03,73.02,75.42,62,0,5.5,IN,1604609873
Lang Son,21.83,106.73,66.07,87,53,0.45,VN,1604609874
Henties Bay,-22.12,14.28,61.0,92,2,5.01,NA,1604609875
Biscarrosse,44.39,-1.17,46.4,93,0,4.7,FR,1604609876
Talakan,50.32,130.37,20.37,94,92,3.22,RU,1604609877
Burgersdorp,-31.0,26.33,59.79,72,34,8.7,ZA,1604609879
Yakeshi,49.28,120.73,19.94,96,94,3.76,CN,1604609880
Chkalovskoye,44.84,133.04,36.48,88,25,6.2,RU,1604609881
Lafiagi,8.87,5.42,82.78,43,24,0.81,NG,1604609882
Ben Gardane,33.14,11.22,69.93,72,25,7.09,TN,1604609883
Dolisie,-4.2,12.67,73.71,92,100,2.3,CG,1604609624
Bubaque,11.28,-15.83,84.2,72,4,8.7,GW,1604609885
Puerto Escondido,15.85,-97.07,86.0,66,75,6.93,MX,1604609886
Half Moon Bay,37.46,-122.43,77.0,68,1,12.75,US,1604609148
Pangnirtung,66.15,-65.71,10.4,51,90,9.17,CA,1604609580
Namatanai,-3.67,152.43,82.08,78,81,6.96,PG,1604609890
Bud,39.45,-86.18,68.0,40,1,9.17,US,1604609813
Beringovskiy,63.05,179.32,38.16,93,100,13.94,RU,1604609892
Kieta,-6.22,155.63,82.85,70,92,0.22,PG,1604609893
Yarmouth,41.71,-70.23,64.0,82,1,13.87,US,1604609447
Bongandanga,1.5,21.05,68.94,99,100,1.48,CD,1604609895
Camaná,-16.62,-72.71,67.55,68,42,8.08,PE,1604609897
Krasnoarmeysk,51.02,45.7,39.99,88,3,7.58,RU,1604609899
Deputatsky,69.3,139.9,-8.88,92,98,1.74,RU,1604609670
Khonsa,27.02,95.57,59.67,83,45,2.53,IN,1604609901
Peterhead,57.51,-1.8,52.0,81,15,1.12,GB,1604609902
Itabaiana,-10.69,-37.43,80.6,78,20,14.99,BR,1604609903
Bodden Town,19.28,-81.25,80.6,83,90,9.17,KY,1604609904
Egvekinot,66.32,-179.17,31.26,100,100,9.93,RU,1604609905
Barra do Garças,-15.89,-52.26,95.0,39,40,3.96,BR,1604609907
Anchorage,61.22,-149.9,17.01,72,1,3.78,US,1604609710
Comodoro Rivadavia,-45.87,-67.5,75.2,25,40,20.8,AR,1604609909
Kavieng,-2.57,150.8,82.51,74,100,5.5,PG,1604609771
Henderson,36.04,-114.98,84.99,13,1,8.05,US,1604609686
Gayéri,12.65,0.49,84.09,22,47,7.31,BF,1604609912
Yerbogachën,61.28,108.01,11.41,94,100,11.97,RU,1604609346
Shelburne,44.08,-80.2,62.6,55,1,10.29,CA,1604609914
Hofn,64.25,-15.21,46.15,70,27,45.07,IS,1604609916
Joshīmath,30.57,79.57,44.35,48,0,3.36,IN,1604609917
Deep River,46.1,-77.5,68.0,49,1,6.93,CA,1604609704
Lashio,22.93,97.75,61.12,99,14,1.7,MM,1604609919
Muncar,-8.43,114.33,75.63,89,8,2.15,ID,1604609920
Mizdah,31.45,12.98,61.21,69,19,8.86,LY,1604609921
Kalabo,-14.97,22.68,72.14,67,85,3.31,ZM,1604609922
Tezu,27.92,96.17,65.28,53,1,3.4,IN,1604609582
Zdvinsk,54.7,78.66,34.99,92,96,5.82,RU,1604609926
Andenes,69.31,16.12,41.0,80,75,33.33,NO,1604609927
Sinnamary,5.38,-52.95,78.08,88,99,8.39,GF,1604609928
Taltal,-25.4,-70.48,65.91,53,22,5.21,CL,1604609929
Clyde River,70.47,-68.59,-2.2,64,1,16.11,CA,1604609931
Lohja,60.25,24.07,44.01,78,46,8.99,FI,1604609932
Kyabram,-36.32,145.05,51.01,65,67,10.04,AU,1604609933
Araceli,10.55,119.99,81.59,76,37,5.64,PH,1604609934
Laguna,38.42,-121.42,79.0,33,1,2.24,US,1604609935
Cabedelo,-6.98,-34.83,82.4,69,20,9.17,BR,1604609936
Porterville,36.07,-119.02,79.0,35,1,4.7,US,1604609937
Natal,-5.79,-35.21,82.4,74,40,11.41,BR,1604609898
Kutum,14.2,24.67,68.23,26,4,16.24,SD,1604609652
Demidov,55.27,31.52,45.12,83,100,14.83,RU,1604609942
Antofagasta,-23.65,-70.4,68.0,72,20,17.22,CL,1604609560
Mount Gambier,-37.83,140.77,48.2,87,90,6.93,AU,1604609832
Sobolevo,54.43,31.9,44.04,83,100,17.07,RU,1604609946
Tabou,4.42,-7.35,79.34,87,0,7.61,CI,1604609947
Ségou,13.43,-6.22,84.88,28,0,4.23,ML,1604609948
Maceió,-9.67,-35.74,80.6,78,0,14.99,BR,1604609949
Kloulklubed,7.04,134.26,77.0,94,90,10.13,PW,1604609950
Russell,32.35,-85.2,75.2,47,90,4.7,US,1604609951
Nelson Bay,-32.72,152.15,62.01,87,75,12.75,AU,1604609953
Pampierstad,-27.78,24.69,70.72,44,0,7.29,ZA,1604609954
Mill Valley,37.91,-122.55,78.01,56,0,8.01,US,1604609955
Mahabalipuram,12.63,80.17,80.6,100,40,4.56,IN,1604609779
Rocha,-34.48,-54.33,63.72,69,18,11.39,UY,1604609312
Montrose,38.42,-108.27,66.0,33,0,5.01,US,1604609958
Nanzhang,31.78,111.84,60.37,55,98,2.68,CN,1604609959
Labuhan,-6.88,112.21,79.25,82,100,6.87,ID,1604609961
Malindi,-3.22,40.12,78.46,82,9,12.35,KE,1604609962
Buraidah,26.33,43.98,69.8,26,0,4.7,SA,1604609797
Sombrerete,23.63,-103.65,67.6,24,52,14.23,MX,1604609964
Aban,56.67,96.06,22.37,95,100,16.58,RU,1604609965
Shitanjing,39.23,106.34,34.43,73,0,23.4,CN,1604609966
Saint-François,46.42,3.91,42.01,100,40,3.36,FR,1604609579
Kiryat Gat,31.61,34.76,64.4,88,75,8.05,IL,1604609834
Santa Rosa,14.31,121.11,79.0,94,75,2.24,PH,1604609970
Baijiantan,45.63,85.18,33.53,78,2,5.61,CN,1604609971
Province of Mantua,45.17,10.78,53.01,93,0,2.24,IT,1604609972
San Quintín,30.48,-115.95,79.41,39,66,10.36,MX,1604609800
Port Hedland,-20.32,118.57,75.2,69,0,10.29,AU,1604609950
Ferkessédougou,9.6,-5.2,82.29,48,91,3.96,CI,1604609976
Dicabisagan,17.08,122.42,74.89,82,82,4.32,PH,1604609977
Pacific Grove,36.62,-121.92,82.4,30,1,8.05,US,1604609477
Fort Nelson,58.81,-122.7,8.6,78,90,12.75,CA,1604609980
Canandaigua,42.87,-77.29,68.0,30,1,11.41,US,1604609981
Sinfra,6.62,-5.92,73.31,96,85,3.06,CI,1604609982
Rechka Vydrino,51.48,104.85,31.8,87,100,7.85,RU,1604609983
Roald,62.58,6.13,51.8,93,75,28.86,NO,1604609986
Karratha,-20.74,116.85,73.83,44,0,10.42,AU,1604609314
Ketchikan,55.34,-131.65,42.8,93,90,11.41,US,1604609771
Mehamn,71.04,27.85,41.0,86,40,11.41,NO,1604609989
Biak,-0.91,122.88,77.72,76,64,1.81,ID,1604609990
Turaif,31.67,38.66,59.0,82,0,6.93,SA,1604609992
Vestmanna,62.16,-7.17,48.2,100,100,18.34,FO,1604609993
Malakal,9.53,31.66,79.56,64,2,3.02,SS,1604609994
Gampaha,7.09,79.99,77.0,88,20,4.7,LK,1604609996
Tignère,7.37,12.65,68.41,52,100,0.22,CM,1604609997
Klaksvík,62.23,-6.59,48.2,100,100,18.34,FO,1604609772
Anáhuac,27.23,-100.15,82.4,45,40,6.93,MX,1604609999
San Carlos,9.66,-68.58,80.76,85,54,1.45,VE,1604610000
Pompéia,-22.11,-50.17,78.49,40,59,2.17,BR,1604610002
Dobrinka,52.17,40.47,43.79,89,89,10.13,RU,1604610004
Nhulunbuy,-12.23,136.77,78.8,83,0,3.36,AU,1604609559
Naters,46.33,7.99,53.01,47,3,3.0,CH,1604610006
Amarante do Maranhão,-5.57,-46.74,85.12,57,91,2.91,BR,1604610008
Sola,-13.88,167.55,81.75,82,93,13.0,VU,1604610010
Bathsheba,13.22,-59.52,86.0,70,40,19.46,BB,1604609518
Marsabit,2.33,37.99,68.32,82,84,15.39,KE,1604610012
Mehrān,33.12,46.16,62.6,25,40,2.24,IR,1604610013
Beloha,-25.17,45.05,66.7,90,100,4.05,MG,1604610015
Kasongo-Lunda,-6.47,16.82,73.29,90,100,1.95,CD,1604610016
Guhāgar,17.48,73.19,73.67,59,0,6.29,IN,1604610017
Eston,51.15,-108.75,60.01,61,75,24.16,CA,1604610018
Afikpo,5.89,7.94,78.46,79,99,5.12,NG,1604610020
Puerto del Rosario,28.5,-13.86,68.0,77,20,4.7,ES,1604610021
Queanbeyan,-35.35,149.23,48.99,76,0,6.93,AU,1604610022
Sechura,-5.56,-80.82,73.42,54,4,19.22,PE,1604610023
Balyqshy,47.07,51.87,46.4,45,0,17.9,KZ,1604610025
Nouakchott,18.09,-15.98,75.2,78,0,4.7,MR,1604610026
Lyaskelya,61.77,31.02,42.13,69,23,13.18,RU,1604610028
Kirkuk,35.47,44.39,66.99,49,99,11.81,IQ,1604610029
Carpinteria,34.4,-119.52,90.0,16,99,3.0,US,1604609772
Uzhur,55.3,89.83,32.04,97,98,20.27,RU,1604610031
Balkhash,46.84,74.98,37.18,66,28,7.78,KZ,1604609779
Fonte Boa,-2.5,-66.27,87.91,64,90,1.81,BR,1604610034
Acapulco de Juárez,16.86,-99.89,87.8,66,40,11.41,MX,1604609521
Nouadhibou,20.93,-17.03,68.0,88,29,13.87,MR,1604610036
Rincon,32.3,-81.24,78.8,54,75,14.99,US,1604610037
Yingkou,40.66,122.23,55.36,82,100,18.54,CN,1604610038
Lagoa,39.05,-27.98,60.22,68,18,19.1,PT,1604610040
Iquique,-20.22,-70.14,66.2,63,0,17.22,CL,1604609923
Bima,-8.47,118.72,76.87,84,13,3.38,ID,1604610043
Saint-Joseph,-21.37,55.62,69.01,72,22,5.82,RE,1604609594
Tomatlán,19.93,-105.25,87.08,57,10,5.79,MX,1604610045
Acajutla,13.59,-89.83,73.4,100,75,2.55,SV,1604610048
Tsimmerbude,54.67,20.13,51.8,93,75,20.13,RU,1604610049
Nokaneng,-19.67,22.27,79.97,45,51,11.52,BW,1604610050
Kinna,57.51,12.69,54.0,87,90,14.99,SE,1604610052
İskenderun,36.59,36.17,66.99,100,75,3.36,TR,1604610053
Jasper,37.2,-94.35,75.0,46,1,5.82,US,1604610054
Qasigiannguit,68.82,-51.19,17.6,67,75,14.99,GL,1604610056
Novyy Buyan,53.69,50.05,32.0,90,90,4.47,RU,1604610057
Cayenne,4.93,-52.33,77.0,100,97,5.82,GF,1604609932
Sault Ste. Marie,46.52,-84.33,62.6,41,1,12.75,CA,1604610005
Mayo,38.89,-76.51,66.99,55,1,10.29,US,1604610062
